City_ID,City,Lat,Lng,Max Temp,Humidity,Cloudiness,Wind Speed,Country,Date
0,dompu,-8.5356,118.4622,25.05000000000001,97,88,0.8,ID,2024-04-24 17:55:20
1,ust-nera,64.5664,143.2378,1.9300000000000068,93,99,2.45,RU,2024-04-24 17:55:22
2,bukhara,39.7676,64.4231,22.80000000000001,32,79,4.54,UZ,2024-04-24 17:55:23
3,atafu village,39.7676,64.4231,22.80000000000001,32,79,4.54,UZ,2024-04-24 17:55:23
4,puerto baquerizo moreno,-0.9026,-89.6102,25.5,85,17,3.14,EC,2024-04-24 17:55:27
5,blackmans bay,-43.0047,147.318,10.160000000000025,67,97,7.06,AU,2024-04-24 17:55:29
6,aur,-3.7361,104.2317,23.360000000000014,99,100,0.68,ID,2024-04-24 17:55:30
7,waitangi,-35.2705,174.0805,18.710000000000036,60,100,2.84,NZ,2024-04-24 17:55:32
8,lebu,-37.61,-73.6559,13.0,93,100,6.53,CL,2024-04-24 17:55:34
9,stanley,-51.6951,-57.8492,6.8799999999999955,87,13,6.95,FK,2024-04-24 17:55:36
10,kievka,54.3963,62.8787,3.5300000000000296,58,100,6.11,RU,2024-04-24 17:55:38
11,port-aux-francais,-49.3498,70.22,4.270000000000039,64,59,9.3,TF,2024-04-24 17:55:39
12,vila velha,-20.3297,-40.292,25.920000000000016,88,16,3.67,BR,2024-04-24 17:55:41
13,puerto natales,-51.7262,-72.506,4.2000000000000455,96,91,0.86,CL,2024-04-24 17:55:43
14,afaahiti,-17.739,-149.29,27.410000000000025,75,4,3.55,PF,2024-04-24 17:55:45
15,howrah,22.5736,88.3251,29.03000000000003,55,1,0.75,IN,2024-04-24 17:55:47
16,longyearbyen,78.2232,15.6464,-7.9599999999999795,84,6,1.75,SJ,2024-04-24 17:55:48
17,mosjoen,65.8375,13.1892,-0.5299999999999727,100,100,1.15,NO,2024-04-24 17:55:50
18,vilyuchinsk,52.9318,158.4054,4.660000000000025,49,100,5.37,RU,2024-04-24 17:55:52
19,mersing,2.4299,103.8355,25.79000000000002,93,64,0.86,MY,2024-04-24 17:55:54
20,amahai,-3.3082,129.0011,26.700000000000045,85,8,0.98,ID,2024-04-24 17:55:56
21,ilulissat,69.2197,-51.0986,0.7300000000000182,98,100,5.78,GL,2024-04-24 17:55:57
22,papatowai,-46.5619,169.4708,11.700000000000045,83,31,8.48,NZ,2024-04-24 17:55:59
23,grytviken,-54.2806,-36.5098,-2.0600000000000023,79,68,5.12,GS,2024-04-24 17:56:01
24,adamstown,-25.0667,-130.1002,23.180000000000007,88,9,8.2,PN,2024-04-24 17:56:03
25,ushuaia,-54.8061,-68.3185,3.490000000000009,95,99,3.18,AR,2024-04-24 17:56:04
26,smithers,54.7792,-127.1761,9.680000000000007,38,97,3.89,CA,2024-04-24 17:56:08
27,yigo village,54.7792,-127.1761,11.180000000000007,35,75,5.66,CA,2024-04-24 17:56:10
28,agalatovo,60.2187,30.2931,3.5500000000000114,81,100,4.1,RU,2024-04-24 17:56:13
29,can,49.1813,-0.3636,5.850000000000023,93,0,3.09,FR,2024-04-24 17:56:14
30,namdrik,49.1813,-0.3636,5.850000000000023,93,0,3.09,FR,2024-04-24 17:56:14
31,margaret river,-33.9532,115.0769,11.610000000000014,76,100,4.69,AU,2024-04-24 17:56:21
32,bethel,60.7922,-161.7558,6.189999999999998,75,100,4.12,US,2024-04-24 17:56:23
33,quellon,-43.12,-73.6203,10.689999999999998,89,87,6.02,CL,2024-04-24 17:56:24
34,yellowknife,62.4541,-114.3774,7.830000000000041,58,75,6.17,CA,2024-04-24 17:53:06
35,olonkinbyen,70.9224,-8.716,-1.6099999999999568,82,8,2.17,SJ,2024-04-24 17:56:28
36,san patricio,27.9695,-97.7732,29.25,67,89,7.92,US,2024-04-24 17:56:30
37,tsiombe,27.9695,-97.7732,29.25,67,89,7.92,US,2024-04-24 17:56:30
38,qujing,25.4936,103.7943,16.80000000000001,45,0,6.99,CN,2024-04-24 17:56:48
39,port-cartier,50.0187,-66.8757,0.5900000000000318,97,100,5.13,CA,2024-04-24 17:56:52
40,muroto-misakicho,50.0187,-66.8757,0.5900000000000318,97,100,5.13,CA,2024-04-24 17:56:52
41,qaqortoq,60.7182,-46.0385,-0.12000000000000455,90,73,2.2,GL,2024-04-24 17:56:57
42,wailua homesteads,22.0581,-159.3691,27.400000000000034,80,0,7.2,US,2024-04-24 17:57:14
43,uray,60.1291,64.8036,-4.509999999999991,72,100,4.02,RU,2024-04-24 17:57:16
44,utrik,60.1291,64.8036,-4.509999999999991,72,100,4.02,RU,2024-04-24 17:57:16
45,santana,-12.9792,-44.0506,25.379999999999995,55,40,1.23,BR,2024-04-24 17:57:19
46,kapa'a,-33.929,18.4174,18.720000000000027,89,0,5.14,ZA,2024-04-24 17:57:21
47,badger,42.6144,-94.1462,19.680000000000007,28,0,1.54,US,2024-04-24 17:57:24
48,iqaluit,63.7494,-68.5219,-6.029999999999973,73,100,6.71,CA,2024-04-24 17:57:26
49,key west,24.5626,-81.7724,27.99000000000001,56,20,4.12,US,2024-04-24 17:57:31
50,udachny,66.4118,112.2517,-14.0,94,80,3.58,RU,2024-04-24 17:57:34
51,bilibino,68.055,166.4449,-11.299999999999955,72,30,1.1,RU,2024-04-24 17:57:37
52,kodiak,57.79,-152.4072,5.730000000000018,93,100,7.2,US,2024-04-24 17:57:38
53,palmer,61.5996,-149.1111,13.189999999999998,35,0,1.34,US,2024-04-24 17:57:40
54,bredasdorp,-34.5331,20.0428,16.220000000000027,77,29,1.3,ZA,2024-04-24 17:57:42
55,invercargill,-46.4118,168.3471,10.57000000000005,90,58,8.05,NZ,2024-04-24 17:57:44
56,neftcala,39.3791,49.2486,15.990000000000009,66,83,4.8,AZ,2024-04-24 17:57:46
57,port mathurin,-19.6808,63.4221,26.700000000000045,71,100,7.83,MU,2024-04-24 17:57:49
58,lander,42.8331,-108.7307,21.55000000000001,40,100,9.77,US,2024-04-24 17:57:51
59,whitehorse,60.72,-135.0519,11.430000000000007,30,40,2.06,CA,2024-04-24 17:56:01
60,avarua,-21.2075,-159.7708,27.99000000000001,65,75,3.09,CK,2024-04-24 17:57:54
61,kirkwall,58.9816,-2.9604,4.03000000000003,81,75,7.72,GB,2024-04-24 17:57:59
62,beau vallon,-20.4298,57.7118,26.230000000000018,89,40,3.09,MU,2024-04-24 17:58:01
63,st. john's,47.5615,-52.7126,13.82000000000005,96,100,11.32,CA,2024-04-24 17:58:03
64,palikir - national government center,47.5615,-52.7126,13.82000000000005,96,100,11.32,CA,2024-04-24 17:58:03
65,marsh harbour,26.5383,-77.061,22.640000000000043,57,16,4.63,BS,2024-04-24 17:58:06
66,burabay,53.083,70.3086,-1.7999999999999545,50,6,4.77,KZ,2024-04-24 17:58:08
67,ruidoso,33.3316,-105.6731,22.379999999999995,12,0,6.69,US,2024-04-24 17:58:11
68,isafjordur,66.0727,-23.1194,3.8100000000000023,82,48,2.49,IS,2024-04-24 17:58:13
69,bolkhov,53.4451,36.0053,10.629999999999995,77,99,8.63,RU,2024-04-24 17:58:15
70,suicheng,21.3795,110.2505,25.30000000000001,96,28,3.13,CN,2024-04-24 17:58:18
71,albany,42.6512,-73.755,12.160000000000025,65,75,4.63,US,2024-04-24 17:58:23
72,pacasmayo,-7.4029,-79.5685,21.670000000000016,80,53,5.93,PE,2024-04-24 17:58:24
73,weno,7.4401,151.857,25.470000000000027,94,100,3.6,FM,2024-04-24 17:58:26
74,zeya,53.7404,127.2716,6.4500000000000455,95,100,1.32,RU,2024-04-24 17:58:28
75,severo-yeniseyskiy,53.7404,127.2716,6.4500000000000455,95,100,1.32,RU,2024-04-24 17:58:28
76,tiksi,71.6366,128.8685,-11.829999999999984,88,100,6.62,RU,2024-04-24 17:58:32
77,puerto ayora,-0.7472,-90.3134,31.340000000000032,95,32,1.34,EC,2024-04-24 17:58:35
78,edinburgh of the seven seas,-37.0676,-12.3108,16.30000000000001,76,100,6.62,SH,2024-04-24 17:58:37
79,igarka,67.4566,86.5308,-11.169999999999959,97,93,3.13,RU,2024-04-24 17:59:01
80,lac-brome,45.2325,-72.5817,2.2100000000000364,68,61,4.96,CA,2024-04-24 17:59:02
81,lihue,21.977,-159.3688,27.660000000000025,75,0,7.2,US,2024-04-24 17:59:05
82,polyarnyy,21.977,-159.3688,27.660000000000025,75,0,7.2,US,2024-04-24 17:59:05
83,taulaga,-11.0553,-171.0884,29.49000000000001,74,11,5.39,AS,2024-04-24 17:59:25
84,hamilton,43.2561,-79.8729,10.240000000000009,51,75,3.6,CA,2024-04-24 17:56:01
85,georgetown,6.8137,-58.1624,28.160000000000025,74,40,3.09,GY,2024-04-24 17:59:30
86,midvagur,62.0491,-7.1892,2.5100000000000477,75,20,2.57,FO,2024-04-24 17:59:32
87,pirane,-25.7282,-59.1064,23.470000000000027,99,65,2.97,AR,2024-04-24 17:59:34
88,gadzhiyevo,69.2504,33.3153,-1.3199999999999932,92,100,4.41,RU,2024-04-24 17:59:36
89,tamanrasset,22.7855,5.5324,19.900000000000034,12,0,1.54,DZ,2024-04-24 17:59:44
90,lhasa,29.6554,91.1705,3.660000000000025,66,34,0.64,CN,2024-04-24 17:59:46
91,lata,18.3983,76.5621,31.310000000000002,30,69,2.66,IN,2024-04-24 17:59:48
92,dunedin,-45.8741,170.5036,16.850000000000023,53,61,5.16,NZ,2024-04-24 17:59:50
93,east london,-33.0192,27.8999,20.760000000000048,76,100,5.23,ZA,2024-04-24 17:59:52
94,umluj,25.0303,37.2622,30.120000000000005,28,0,3.81,SA,2024-04-24 17:59:54
95,al jawf,24.1985,23.2939,24.02000000000004,32,40,4.1,LY,2024-04-24 18:00:03
96,newman,37.3139,-121.0204,20.160000000000025,56,100,0.89,US,2024-04-24 18:00:08
97,castillos,-34.2003,-53.8608,12.870000000000005,82,28,2.32,UY,2024-04-24 18:00:12
98,genhe,51.3347,121.8112,1.0400000000000205,66,89,3.87,CN,2024-04-24 18:00:15
99,barcelona,41.3829,2.1774,15.100000000000023,79,20,2.57,ES,2024-04-24 17:59:43
100,zaozersk,69.4009,32.4413,-3.2999999999999545,94,100,1.67,RU,2024-04-24 18:00:20
101,west island,-12.1459,96.8423,27.03000000000003,89,40,8.23,CC,2024-04-24 18:00:23
102,ahar,38.4775,47.0662,10.060000000000002,72,94,1.37,IR,2024-04-24 18:00:28
103,siwa oasis,29.2035,25.5192,22.350000000000023,31,100,5.68,EG,2024-04-24 18:00:45
104,ribeira grande,37.8225,-25.5195,16.189999999999998,67,75,3.6,PT,2024-04-24 18:00:47
105,ardestan,33.3684,52.3699,12.5,76,95,0.9,IR,2024-04-24 18:00:50
106,puerto aysen,-45.4068,-72.6977,6.810000000000002,99,100,1.56,CL,2024-04-24 18:00:59
107,sale,44.9807,8.8093,8.840000000000032,88,25,2.37,IT,2024-04-24 18:01:22
108,keflavik,63.9998,-22.5565,7.9500000000000455,81,75,2.06,IS,2024-04-24 18:01:24
109,thompson,55.7433,-97.8635,11.100000000000023,25,0,1.03,CA,2024-04-24 17:59:51
110,hayma',15.4662,44.2266,18.74000000000001,50,68,2.12,YE,2024-04-24 18:01:29
111,pizarro,4.9538,-77.3668,27.060000000000002,84,68,2.73,CO,2024-04-24 18:01:32
112,ouallam,14.3158,2.0848,34.32000000000005,12,4,4.09,NE,2024-04-24 18:01:33
113,kailua-kona,19.6419,-155.9969,26.82000000000005,69,7,4.17,US,2024-04-24 18:01:36
114,margate,51.3878,1.382,6.660000000000025,69,38,1.79,GB,2024-04-24 18:01:39
115,canon city,38.4424,-105.2225,27.32000000000005,19,0,5.66,US,2024-04-24 18:01:41
116,dudinka,69.4061,86.1751,-7.3799999999999955,89,64,4.92,RU,2024-04-24 18:01:42
117,burang,30.2962,81.1748,-2.089999999999975,69,18,1.39,CN,2024-04-24 18:01:44
118,daloa,6.8767,-6.4516,27.07000000000005,75,77,2.67,CI,2024-04-24 18:01:47
119,laguna,-28.4837,-48.7817,21.140000000000043,69,100,4.83,BR,2024-04-24 18:01:49
120,betul,21.8998,77.8959,27.58000000000004,40,11,0.68,IN,2024-04-24 18:01:52
121,coquimbo,-29.9532,-71.338,14.930000000000007,88,75,4.63,CL,2024-04-24 18:02:16
122,maun,-19.9861,23.4224,20.890000000000043,25,0,2.75,BW,2024-04-24 18:02:18
123,geraldton,-28.7704,114.6147,18.090000000000032,52,100,11.83,AU,2024-04-24 17:53:39
124,midelt,32.6803,-4.7399,15.910000000000025,35,100,1.15,MA,2024-04-24 18:02:21
125,haiku-pauwela,32.6803,-4.7399,15.910000000000025,35,100,1.15,MA,2024-04-24 18:02:21
126,jamestown,-15.9277,-5.7161,23.460000000000036,75,54,8.96,SH,2024-04-24 18:02:25
127,trat,12.2441,102.5123,28.180000000000007,76,98,1.84,TH,2024-04-24 18:02:27
128,crane,31.3957,-102.3521,30.189999999999998,39,93,9.92,US,2024-04-24 18:02:32
129,grand-lahou,5.2443,-5.0035,27.060000000000002,88,91,2.33,CI,2024-04-24 18:02:33
130,cole harbour,45.2594,-61.27,5.160000000000025,93,98,1.59,CA,2024-04-24 18:02:35
131,saratamata,-15.2872,167.9906,29.02000000000004,80,79,2.4,VU,2024-04-24 18:02:37
132,corner brook,48.9523,-57.9474,3.0100000000000477,99,100,1.81,CA,2024-04-24 17:53:32
133,fuvahmulah,-0.2948,73.4241,27.57000000000005,80,100,1.62,MV,2024-04-24 18:02:40
134,illizi,26.5042,8.4799,22.82000000000005,18,0,3.77,DZ,2024-04-24 18:02:43
135,enterprise,31.3152,-85.8552,27.120000000000005,54,100,2.06,US,2024-04-24 18:02:46
136,port elizabeth,-33.9617,25.6208,16.060000000000002,88,0,6.69,ZA,2024-04-24 18:03:16
137,boguchany,58.3828,97.4616,-5.649999999999977,96,85,0.89,RU,2024-04-24 18:03:18
138,imbituba,-28.2418,-48.6643,19.480000000000018,81,100,4.67,BR,2024-04-24 18:03:21
139,nizhyn,51.0465,31.8806,9.29000000000002,96,18,2.96,UA,2024-04-24 18:03:22
140,selfoss,63.9368,-21.0035,5.640000000000043,77,95,0.92,IS,2024-04-24 18:03:25
141,cockburn town,21.4608,-71.14,25.510000000000048,78,4,7.24,TC,2024-04-24 18:03:27
142,port lincoln,-34.7212,135.8592,13.870000000000005,72,58,2.75,AU,2024-04-24 18:03:29
143,la ronge,55.1005,-105.29,14.080000000000041,30,20,6.17,CA,2024-04-24 18:03:32
144,portland,45.5202,-122.6742,18.460000000000036,55,100,3.13,US,2024-04-24 18:02:07
145,waynesville,35.4887,-82.9889,18.350000000000023,42,72,1.34,US,2024-04-24 18:03:36
146,sonsorol village,35.4887,-82.9889,18.350000000000023,42,72,1.34,US,2024-04-24 18:03:36
147,tanjung selor,2.8418,117.3687,24.75,95,99,0.94,ID,2024-04-24 18:03:40
148,antakya,36.2043,36.164,23.54000000000002,66,100,1.9,TR,2024-04-24 18:03:42
149,tura,47.39,0.6889,8.32000000000005,71,0,1.54,FR,2024-04-24 18:03:44
150,vorkuta,67.5036,64.0627,-15.009999999999991,98,96,1.34,RU,2024-04-24 18:03:46
151,freetown,8.479,-13.268,27.560000000000002,65,75,5.14,SL,2024-04-24 18:03:48
152,argostolion,38.1757,20.4879,13.54000000000002,72,95,0.69,GR,2024-04-24 18:03:49
153,bikenibeu village,38.1757,20.4879,13.54000000000002,72,95,0.69,GR,2024-04-24 18:03:49
154,barbezieux-saint-hilaire,45.4812,-0.1419,10.350000000000023,90,99,2.74,FR,2024-04-24 18:03:54
155,college,45.3266,-75.8386,5.170000000000016,35,20,8.23,CA,2024-04-24 18:03:56
156,duobao,31.1344,104.683,15.260000000000048,89,97,1.07,CN,2024-04-24 18:03:59
157,port hedland,-20.3112,118.5801,24.02000000000004,38,100,3.6,AU,2024-04-24 18:04:00
158,san antonio de pale,-1.4046,5.6326,28.370000000000005,81,92,5.23,GQ,2024-04-24 18:04:02
159,antofagasta,-23.6464,-70.398,17.660000000000025,87,97,3.36,CL,2024-04-24 18:04:07
160,sao desiderio,-12.3572,-44.9769,27.600000000000023,52,96,0.61,BR,2024-04-24 18:04:10
161,black point,24.0963,-76.4023,24.02000000000004,63,0,5.7,BS,2024-04-24 18:04:11
162,howard springs,-12.497,131.047,27.710000000000036,94,97,3.72,AU,2024-04-24 18:04:16
163,gaiman,-43.2915,-65.4983,16.910000000000025,36,45,12.86,AR,2024-04-24 18:04:18
164,anadyr,64.7317,177.5061,-4.069999999999993,92,100,12.0,RU,2024-04-24 18:04:19
165,petropavlovsk-kamchatsky,53.02,158.6471,10.060000000000002,46,100,8.1,RU,2024-04-24 18:04:21
166,quthing,-30.4033,27.7023,13.28000000000003,34,48,0.78,LS,2024-04-24 18:04:23
167,happy valley-goose bay,53.2964,-60.3112,8.29000000000002,53,100,7.72,CA,2024-04-24 18:04:25
168,iba,15.3265,119.9801,29.08000000000004,68,34,1.1,PH,2024-04-24 18:04:29
169,valdivia,-39.8141,-73.246,12.050000000000011,96,100,3.3,CL,2024-04-24 18:04:34
170,usogorsk,63.4295,48.7062,0.34000000000003183,96,100,5.36,RU,2024-04-24 18:04:37
171,wellington,-41.2889,174.7772,17.400000000000034,61,75,12.86,NZ,2024-04-24 17:57:02
172,talnakh,69.494,88.3908,-8.009999999999991,95,86,0.91,RU,2024-04-24 18:04:40
173,skagen,57.726,10.5845,5.410000000000025,73,100,0.99,DK,2024-04-24 18:04:42
174,nizhniy kuranakh,58.8191,125.5293,-1.1499999999999773,87,100,3.01,RU,2024-04-24 18:04:45
175,okha,53.5891,142.9498,7.350000000000023,74,74,4.92,RU,2024-04-24 18:04:47
176,heinola,61.2027,26.0314,-0.5299999999999727,96,66,2.05,FI,2024-04-24 18:04:53
177,aubigny-sur-nere,47.4887,2.4382,4.490000000000009,79,98,0.55,FR,2024-04-24 18:04:55
178,melfort,52.8614,-104.6136,21.060000000000002,16,64,5.14,CA,2024-04-24 18:04:57
179,al burayqah,12.7524,44.8921,28.52000000000004,70,3,5.76,YE,2024-04-24 18:04:59
180,tukrah,32.5322,20.5722,17.370000000000005,61,98,1.97,LY,2024-04-24 18:05:08
181,uturoa,-16.7437,-151.4594,26.30000000000001,72,1,3.81,PF,2024-04-24 18:05:10
182,dalandzadgad,-16.7437,-151.4594,26.30000000000001,72,1,3.81,PF,2024-04-24 18:05:10
183,ocean pointe,-16.7437,-151.4594,26.30000000000001,72,1,3.81,PF,2024-04-24 18:05:10
184,nar'yan-mar,67.638,53.0071,-6.6200000000000045,82,5,5.81,RU,2024-04-24 18:05:30
185,susuman,62.7797,148.1536,-4.989999999999952,95,83,1.34,RU,2024-04-24 18:05:33
186,kelowna,49.8879,-119.4959,20.379999999999995,29,75,2.24,CA,2024-04-24 18:05:35
187,aral,40.5422,81.2771,18.860000000000014,28,59,3.82,CN,2024-04-24 18:05:51
188,naze,5.452,7.0567,27.150000000000034,85,100,2.0,NG,2024-04-24 18:05:54
189,enewetak,11.3409,162.3245,27.83000000000004,80,89,6.81,MH,2024-04-24 18:05:56
190,vorgashor,67.5812,63.7837,-15.269999999999982,98,96,1.89,RU,2024-04-24 18:06:13
191,codrington,51.5082,-2.3937,7.9500000000000455,68,64,0.89,GB,2024-04-24 18:06:15
192,carnarvon,-24.8826,113.6576,23.5,42,76,8.38,AU,2024-04-24 18:06:20
193,lompoc,34.6392,-120.4579,20.560000000000002,64,75,6.17,US,2024-04-24 18:06:22
194,noosa heads,-26.4001,153.091,23.220000000000027,62,96,2.13,AU,2024-04-24 18:06:45
195,kavalerovo,44.2674,135.0555,9.770000000000039,98,100,0.45,RU,2024-04-24 18:06:47
196,cambria,37.7814,-89.1192,19.090000000000032,54,40,4.63,US,2024-04-24 18:06:50
197,holualoa,19.6238,-155.9536,25.77000000000004,70,0,5.14,US,2024-04-24 18:06:52
198,general acha,-37.3762,-64.5998,11.670000000000016,59,0,5.19,AR,2024-04-24 18:06:55
199,monte patria,-30.6945,-70.958,19.930000000000007,40,94,1.7,CL,2024-04-24 18:06:57
200,maitum,6.0613,124.4957,28.170000000000016,71,100,1.16,PH,2024-04-24 18:06:59
201,hasaki,35.753,140.8201,17.939999999999998,83,89,2.88,JP,2024-04-24 18:07:00
202,arti,56.4256,58.5327,3.080000000000041,90,100,6.2,RU,2024-04-24 18:07:02
203,kalmunai,7.4132,81.8269,26.510000000000048,87,100,1.5,LK,2024-04-24 18:07:04
204,klyuchi,56.3182,160.8422,5.57000000000005,59,45,1.96,RU,2024-04-24 18:07:06
205,el alto,-16.5048,-68.1624,12.180000000000007,43,20,3.09,BO,2024-04-24 18:07:08
206,usinsk,65.9957,57.5571,-11.120000000000005,90,22,1.34,RU,2024-04-24 18:07:10
207,le port,42.8663,1.374,7.590000000000032,64,100,1.01,FR,2024-04-24 18:07:18
208,prince rupert,54.3127,-130.3255,8.520000000000039,70,82,2.7,CA,2024-04-24 18:07:23
209,nykarleby,63.5222,22.5284,0.5100000000000477,98,85,2.14,FI,2024-04-24 18:07:25
210,sebdou,34.6403,-1.322,8.610000000000014,45,98,2.15,DZ,2024-04-24 18:07:32
211,yuzhno-kurilsk,44.0271,145.8614,5.1299999999999955,98,100,6.8,RU,2024-04-24 18:07:34
212,dazhou,31.216,107.5028,16.129999999999995,91,100,0.93,CN,2024-04-24 18:07:35
213,mil'kovo,54.6904,158.6099,6.1299999999999955,39,85,3.23,RU,2024-04-24 18:07:37
214,mawlamyinegyunn,16.3833,95.2667,26.350000000000023,88,29,2.35,MM,2024-04-24 18:07:39
215,belyy yar,53.5964,91.3824,-7.079999999999984,63,40,3.0,RU,2024-04-24 18:07:41
216,yaren,-0.5471,166.9164,28.920000000000016,77,25,5.62,NR,2024-04-24 18:07:43
217,beichengqu,38.5085,114.9739,17.680000000000007,36,29,1.18,CN,2024-04-24 18:07:46
218,santa terezinha,-26.7813,-50.009,19.700000000000045,94,92,0.69,BR,2024-04-24 18:07:48
219,kuta,-8.7278,115.173,25.970000000000027,100,40,1.54,ID,2024-04-24 18:07:49
220,kandyagash,-8.7278,115.173,25.970000000000027,100,40,1.54,ID,2024-04-24 18:07:49
221,hawaiian paradise park,19.585,-154.9731,26.660000000000025,72,75,0.89,US,2024-04-24 18:07:53
222,mweka,-4.8477,21.5612,21.260000000000048,99,99,1.01,CD,2024-04-24 18:07:55
223,betio village,-4.8477,21.5612,21.260000000000048,99,99,1.01,CD,2024-04-24 18:07:55
224,new norfolk,-42.7802,147.0615,11.850000000000023,70,100,3.69,AU,2024-04-24 18:07:59
225,cabo san lucas,22.8939,-109.9201,32.450000000000045,28,0,3.6,MX,2024-04-24 18:08:04
226,cadale,2.7616,46.322,28.980000000000018,77,95,3.96,SO,2024-04-24 18:08:21
227,luderitz,-26.65,15.1573,15.770000000000039,76,22,6.22,NA,2024-04-24 18:08:22
228,mount gambier,-37.8247,140.782,13.420000000000016,75,55,2.64,AU,2024-04-24 18:08:25
229,berezovyy,52.8927,50.2243,10.410000000000025,65,100,2.81,RU,2024-04-24 18:08:28
230,findlay,41.0414,-83.6504,8.080000000000041,66,100,4.12,US,2024-04-24 18:08:30
231,soro,55.4366,11.5629,5.28000000000003,93,53,3.06,DK,2024-04-24 18:08:32
232,san alejo,13.4327,-87.9612,33.32000000000005,39,68,1.89,SV,2024-04-24 18:08:34
233,mukalla,14.5425,49.1231,26.78000000000003,67,56,0.77,YE,2024-04-24 18:08:37
234,puerto san carlos,-12.6608,-63.55,25.25,91,18,0.58,BR,2024-04-24 18:08:43
235,kulhudhuffushi,6.6233,73.0695,28.900000000000034,75,53,1.92,MV,2024-04-24 18:08:45
236,salamanca,40.9652,-5.664,7.8700000000000045,69,0,1.79,ES,2024-04-24 18:08:53
237,singaraja,-8.1134,115.0839,27.150000000000034,80,84,1.76,ID,2024-04-24 18:08:55
238,rocha,-34.481,-54.3366,13.700000000000045,80,44,2.03,UY,2024-04-24 18:09:18
239,tongchuan,34.8973,108.9404,15.879999999999995,51,55,1.98,CN,2024-04-24 18:09:20
240,galliano,44.0161,11.2913,4.470000000000027,100,62,1.21,IT,2024-04-24 18:09:21
241,flin flon,54.7698,-101.879,11.450000000000045,62,14,2.13,CA,2024-04-24 18:09:23
242,zirl,47.2734,11.2422,-4.699999999999989,95,97,2.26,AT,2024-04-24 18:09:25
243,bubaque,11.2997,-15.8335,26.02000000000004,69,63,10.21,GW,2024-04-24 18:09:27
244,arraial do cabo,-22.9663,-42.0244,25.210000000000036,83,59,1.57,BR,2024-04-24 18:09:01
245,eqbaliyeh,36.2306,49.9248,10.110000000000014,52,3,3.36,IR,2024-04-24 18:09:30
246,alice springs,-23.6984,133.8813,14.870000000000005,42,2,7.08,AU,2024-04-24 18:09:32
247,vredenburg,-32.9067,17.99,14.490000000000009,88,17,3.7,ZA,2024-04-24 18:09:34
248,kenai,60.5544,-151.2583,4.439999999999998,85,77,2.39,US,2024-04-24 18:07:37
249,tokar,18.8518,37.8989,28.04000000000002,83,17,3.91,SD,2024-04-24 18:09:37
250,ponta delgada,37.7394,-25.6684,15.460000000000036,74,40,5.36,PT,2024-04-24 18:09:39
251,safaga,26.7633,33.9384,28.650000000000034,33,10,2.53,EG,2024-04-24 18:09:41
252,floro,61.6003,5.035,4.230000000000018,72,17,2.19,NO,2024-04-24 18:09:43
253,tolanaro,-25.0297,46.9904,21.810000000000002,91,70,3.27,MG,2024-04-24 18:09:45
254,capitao poco,-1.7447,-47.0638,24.02000000000004,96,100,2.13,BR,2024-04-24 18:09:46
255,leninskoye,54.473,69.1826,-0.6499999999999773,55,33,5.08,KZ,2024-04-24 18:09:48
256,aquin,18.2809,-73.3944,26.08000000000004,81,45,2.01,HT,2024-04-24 18:09:50
257,saint-philippe,45.3584,-73.479,2.7200000000000273,45,43,5.85,CA,2024-04-24 18:09:52
258,flying fish cove,-10.4213,105.6744,28.28000000000003,79,64,6.67,CX,2024-04-24 18:09:54
259,wainwright,70.6369,-160.0383,-7.069999999999993,91,100,8.66,US,2024-04-24 18:09:56
260,oltinko'l,40.24,68.1511,19.689999999999998,43,27,3.85,UZ,2024-04-24 18:09:57
261,torghay,40.24,68.1511,19.689999999999998,43,27,3.85,UZ,2024-04-24 18:09:57
262,aykhal,65.9516,111.4918,-11.139999999999986,94,100,6.04,RU,2024-04-24 18:10:01
263,nova sintra,14.8711,-24.6956,21.33000000000004,77,97,6.17,CV,2024-04-24 18:10:03
264,greymouth,-42.4499,171.208,14.420000000000016,91,100,8.7,NZ,2024-04-24 18:10:04
265,sao joao evangelista,-18.548,-42.7653,20.220000000000027,89,5,1.27,BR,2024-04-24 18:10:06
266,puerto ayacucho,5.6576,-67.6044,27.420000000000016,79,100,2.24,VE,2024-04-24 18:10:08
267,ancud,-41.8682,-73.8287,12.200000000000045,84,74,8.69,CL,2024-04-24 18:10:10
268,zeribet el oued,34.683,6.5047,18.02000000000004,25,0,5.15,DZ,2024-04-24 18:10:12
269,malvan,16.0606,73.4669,27.260000000000048,79,44,2.3,IN,2024-04-24 18:10:13
270,tofol,5.326,163.0087,28.670000000000016,78,34,6.14,FM,2024-04-24 18:10:15
271,koppies,-27.2428,27.5741,16.230000000000018,39,26,0.41,ZA,2024-04-24 18:10:17
272,la'ie,21.6438,-157.9244,23.629999999999995,75,27,9.21,US,2024-04-24 18:10:19
273,nemuro,43.3301,145.5829,5.930000000000007,97,100,10.56,JP,2024-04-24 18:10:20
274,beauceville,46.2107,-70.7743,-1.5499999999999545,69,96,7.2,CA,2024-04-24 18:10:22
275,privas,44.7353,4.5987,1.660000000000025,89,70,2.56,FR,2024-04-24 18:10:24
276,pangody,65.8566,74.4948,-13.519999999999982,100,95,1.73,RU,2024-04-24 18:10:26
277,ouadda,8.0716,22.3962,22.980000000000018,77,78,2.18,CF,2024-04-24 18:10:27
278,nebbi,2.4786,31.09,20.07000000000005,88,73,1.99,UG,2024-04-24 18:10:29
279,ulladulla,-35.3622,150.4752,14.410000000000025,57,0,0.7,AU,2024-04-24 18:10:31
280,waddan,29.1614,16.1413,22.5,23,23,3.66,LY,2024-04-24 18:10:33
281,yatou,33.8084,104.3248,5.990000000000009,81,67,2.19,CN,2024-04-24 18:10:35
282,amqui,48.4657,-67.4315,-1.0600000000000023,97,100,5.82,CA,2024-04-24 18:10:36
283,christchurch,-43.531,172.6366,18.24000000000001,49,100,8.53,NZ,2024-04-24 18:08:48
284,greenville,34.8514,-82.3985,18.79000000000002,68,67,2.82,US,2024-04-24 18:10:40
285,ceeldheer,3.8491,47.1803,28.80000000000001,78,76,4.38,SO,2024-04-24 18:10:41
286,eyl,7.9807,49.8188,28.5,78,100,2.44,SO,2024-04-24 18:10:43
287,al kharijah,15.3595,44.2167,18.430000000000007,53,67,0.84,YE,2024-04-24 18:10:45
288,hotan,37.1127,79.9112,18.629999999999995,26,52,3.81,CN,2024-04-24 18:10:47
289,idfu,24.9803,32.8747,28.980000000000018,13,71,1.68,EG,2024-04-24 18:10:49
290,makanya,-4.36,37.8271,21.180000000000007,95,98,2.95,TZ,2024-04-24 18:10:50
291,aasiaat,68.7096,-52.8513,0.5500000000000114,88,97,11.62,GL,2024-04-24 18:10:52
292,bijie,27.2859,105.2866,12.75,93,100,1.73,CN,2024-04-24 18:10:54
293,qasr-e qand,26.2315,60.7473,23.600000000000023,75,12,1.32,IR,2024-04-24 18:10:56
294,minas de marcona,26.2315,60.7473,23.600000000000023,75,12,1.32,IR,2024-04-24 18:10:56
295,whyalla stuart,-33.0312,137.5207,14.450000000000045,64,97,5.11,AU,2024-04-24 18:10:59
296,buala,-8.1455,159.593,29.930000000000007,74,95,2.48,SB,2024-04-24 18:11:01
297,cururupu,-1.8243,-44.873,24.350000000000023,94,92,0.73,BR,2024-04-24 18:11:03
298,kaoma,-14.8009,24.7986,15.470000000000027,43,2,2.71,ZM,2024-04-24 18:11:05
299,kundla,21.3372,71.3156,26.730000000000018,50,0,4.57,IN,2024-04-24 18:11:06
300,maintirano,-18.0609,44.024,25.52000000000004,82,0,4.57,MG,2024-04-24 18:11:08
301,saldanha,-32.9978,17.9456,15.310000000000002,89,23,3.78,ZA,2024-04-24 18:11:10
302,osorno,42.4107,-4.361,4.610000000000014,78,100,3.72,ES,2024-04-24 18:11:12
303,taoudenni,22.6762,-3.9805,32.27000000000004,11,0,4.12,ML,2024-04-24 18:11:14
304,vidin,43.9859,22.8773,10.810000000000002,69,41,3.1,BG,2024-04-24 18:11:16
305,stornoway,58.2084,-6.3881,6.430000000000007,72,100,5.51,GB,2024-04-24 18:11:18
306,shantobe,58.2084,-6.3881,6.430000000000007,72,100,5.51,GB,2024-04-24 18:11:18
307,ariquemes,-9.9077,-63.0331,24.450000000000045,97,95,0.42,BR,2024-04-24 18:11:22
308,brokopondo,5.0568,-54.9767,25.010000000000048,74,87,2.36,SR,2024-04-24 18:11:23
309,ketchikan,55.3431,-131.6467,8.830000000000041,71,77,3.26,US,2024-04-24 18:11:25
310,colonia,50.9384,6.96,3.2700000000000387,94,81,3.29,DE,2024-04-24 18:11:27
311,aleksandrov gay,50.1425,48.5684,12.890000000000043,63,100,3.14,RU,2024-04-24 18:11:29
312,hithadhoo,1.7959,73.3876,29.07000000000005,74,100,5.48,MV,2024-04-24 18:11:31
313,horqueta,-23.3446,-57.0514,27.180000000000007,75,95,1.62,PY,2024-04-24 18:11:33
314,contai,21.7806,87.7448,27.950000000000045,58,2,2.76,IN,2024-04-24 18:11:34
315,gazli,40.1339,63.454,21.77000000000004,35,93,3.72,UZ,2024-04-24 18:11:36
316,alaghsas,40.1339,63.454,21.77000000000004,35,93,3.72,UZ,2024-04-24 18:11:36
317,paros,37.0651,25.1922,15.900000000000034,81,100,1.86,GR,2024-04-24 18:11:40
318,sola,37.5667,126.9783,12.450000000000045,72,87,1.81,KR,2024-04-24 18:11:41
319,touros,-5.1999,-35.4595,26.950000000000045,77,6,4.48,BR,2024-04-24 18:11:43
320,ciudad mante,22.7411,-98.9714,35.700000000000045,35,63,7.01,MX,2024-04-24 18:11:45
321,sao felix do xingu,-6.6387,-51.9788,23.970000000000027,92,85,0.38,BR,2024-04-24 18:11:47
322,menongue,-14.6611,17.682,16.680000000000007,43,89,2.32,AO,2024-04-24 18:11:48
323,vokhtoga,58.8146,41.0313,2.840000000000032,77,50,1.87,RU,2024-04-24 18:11:50
324,callao,-12.0523,-77.1391,20.850000000000023,88,89,3.52,PE,2024-04-24 18:11:52
325,ascension,-7.9411,-14.3631,25.82000000000005,80,78,9.03,SH,2024-04-24 18:11:54
326,kirensk,57.7764,108.1163,-0.7899999999999636,92,95,2.27,RU,2024-04-24 18:11:55
327,veinticinco de mayo,-27.3775,-54.7429,21.27000000000004,98,93,0.73,AR,2024-04-24 18:11:57
328,sarina,11.5862,8.9242,31.200000000000045,18,58,1.96,NG,2024-04-24 18:11:59
329,namibe,-15.1951,12.1458,24.83000000000004,80,74,0.61,AO,2024-04-24 18:12:01
330,constantia,44.1767,28.6508,13.800000000000011,76,88,2.34,RO,2024-04-24 18:12:03
331,york,53.9591,-1.0815,4.220000000000027,75,68,3.45,GB,2024-04-24 18:12:04
332,arta,39.1616,20.9859,13.600000000000023,74,74,1.54,GR,2024-04-24 18:12:06
333,hermanus,-34.4175,19.2361,16.850000000000023,80,53,0.85,ZA,2024-04-24 18:12:08
334,gujba,11.439,11.959,31.430000000000007,13,34,0.99,NG,2024-04-24 18:12:10
335,santa ana,33.7495,-117.8732,17.57000000000005,59,18,6.08,US,2024-04-24 18:12:11
336,sterling,41.7883,-89.6954,12.100000000000023,40,0,2.64,US,2024-04-24 18:12:14
337,bolivar,8.1029,-63.547,32.59000000000003,46,97,5.12,VE,2024-04-24 18:12:17
338,nuuk,64.175,-51.7355,-0.6499999999999773,89,93,11.12,GL,2024-04-24 18:12:19
339,tal'menka,64.175,-51.7355,-0.6499999999999773,89,93,11.12,GL,2024-04-24 18:12:19
340,taroa,12.43,-71.5763,27.220000000000027,85,43,9.73,CO,2024-04-24 18:12:23
341,edd,13.9308,41.6905,33.48000000000002,46,67,4.31,ER,2024-04-24 18:12:24
342,ladovskaya balka,45.6305,41.4015,17.78000000000003,50,87,5.6,RU,2024-04-24 18:12:26
343,alofi,-19.0534,-169.9192,27.390000000000043,68,52,5.7,NU,2024-04-24 18:12:28
344,patterson,41.3483,-93.8804,16.689999999999998,46,8,3.03,US,2024-04-24 18:12:30
345,mili,37.5536,22.7169,15.170000000000016,60,100,2.85,GR,2024-04-24 18:12:31
346,sinabang,2.4795,96.3806,27.33000000000004,85,100,0.59,ID,2024-04-24 18:12:33
347,ola,35.0323,-93.2232,23.120000000000005,59,86,1.49,US,2024-04-24 18:12:35
348,praia da vitoria,38.7392,-27.1563,12.120000000000005,80,76,4.98,PT,2024-04-24 18:12:37
349,dryden,42.4909,-76.2972,3.3000000000000114,78,100,4.66,US,2024-04-24 18:12:39
350,roma,41.8933,12.4829,6.600000000000023,88,5,1.26,IT,2024-04-24 18:12:40
351,zaranj,30.9548,61.8595,21.310000000000002,54,100,2.76,AF,2024-04-24 18:12:42
352,aragarcas,-15.8957,-52.2515,24.439999999999998,63,4,0.99,BR,2024-04-24 18:12:44
353,oranjemund,-28.5519,16.4284,13.580000000000041,96,54,4.45,NA,2024-04-24 18:12:46
354,shimoda,34.6795,138.9454,18.650000000000034,89,87,4.29,JP,2024-04-24 18:12:47
355,cannonvale,-20.2822,148.6895,23.689999999999998,75,10,5.13,AU,2024-04-24 18:12:49
356,masterton,-40.9496,175.6594,14.860000000000014,67,100,6.12,NZ,2024-04-24 18:12:51
357,juneau,58.3019,-134.4197,7.3799999999999955,87,98,1.68,US,2024-04-24 18:10:44
358,nizao,18.2472,-70.212,27.480000000000018,72,46,6.66,DO,2024-04-24 18:12:55
359,ubari,43.0563,141.9739,7.840000000000032,93,100,3.2,JP,2024-04-24 18:12:56
360,broken hill,-31.965,141.4511,10.79000000000002,54,69,7.33,AU,2024-04-24 18:12:58
361,san antonio oeste,-40.7302,-64.939,16.32000000000005,38,100,7.96,AR,2024-04-24 18:13:00
362,xai-xai,-25.0445,33.6407,21.350000000000023,94,0,2.25,MZ,2024-04-24 18:13:02
363,sao jose da coroa grande,-8.8894,-35.1515,26.700000000000045,78,74,2.64,BR,2024-04-24 18:09:20
364,port blair,11.6645,92.739,27.24000000000001,82,83,2.42,IN,2024-04-24 18:13:05
365,boa vista,2.8208,-60.672,25.04000000000002,91,100,2.76,BR,2024-04-24 18:13:07
366,calama,-22.4624,-68.9272,19.670000000000016,21,62,3.5,CL,2024-04-24 18:13:09
367,punta arenas,-53.1626,-70.9078,6.480000000000018,79,100,1.79,CL,2024-04-24 18:13:11
368,porbandar,21.6409,69.611,25.54000000000002,76,0,4.66,IN,2024-04-24 18:13:12
369,la passe,46.2035,-1.4601,12.180000000000007,79,100,7.89,FR,2024-04-24 18:13:14
370,timbuktu,16.7719,-3.0087,34.35000000000002,11,0,3.74,ML,2024-04-24 18:13:16
371,uruacu,-14.5244,-49.151,25.32000000000005,68,51,1.07,BR,2024-04-24 18:13:18
372,katsuren-haebaru,-14.5244,-49.151,25.32000000000005,68,51,1.07,BR,2024-04-24 18:13:18
373,kapuskasing,49.4167,-82.4333,-0.8899999999999864,60,76,1.09,CA,2024-04-24 18:13:21
374,snyder,32.7181,-100.9182,27.689999999999998,47,97,6.87,US,2024-04-24 18:13:23
375,didwana,27.403,74.5778,25.5,25,3,3.58,IN,2024-04-24 18:13:25
376,martapura,-3.4086,114.8488,24.590000000000032,98,94,1.13,ID,2024-04-24 18:13:27
377,gondar,12.6104,37.4668,19.870000000000005,24,17,1.79,ET,2024-04-24 18:13:28
378,hammerfest,70.6413,23.8361,-0.2799999999999727,91,100,2.7,NO,2024-04-24 18:13:30
379,mataram,-8.5838,116.1069,26.470000000000027,85,92,1.81,ID,2024-04-24 18:13:32
380,xilin hot,43.9312,116.0789,7.670000000000016,60,2,2.19,CN,2024-04-24 18:13:34
381,yantongshan,43.2878,126.017,15.580000000000041,47,23,8.35,CN,2024-04-24 18:13:35
382,markovo,42.3473,25.2238,12.200000000000045,93,66,1.28,BG,2024-04-24 18:13:37
383,san andres,12.5203,122.0117,27.420000000000016,78,94,2.28,PH,2024-04-24 18:13:39
384,nantucket,41.3157,-70.009,9.340000000000032,95,64,7.95,US,2024-04-24 18:13:41
385,njombe,-9.338,34.7695,14.960000000000036,96,100,3.42,TZ,2024-04-24 18:13:43
386,petauke,-14.2502,31.3298,17.160000000000025,63,2,3.33,ZM,2024-04-24 18:13:44
387,williams lake,52.1293,-122.1397,13.75,42,94,1.77,CA,2024-04-24 18:13:46
388,manta,44.6159,7.487,5.270000000000039,53,68,1.58,IT,2024-04-24 18:13:48
389,papao,12.6919,-16.3792,24.910000000000025,55,79,5.32,SN,2024-04-24 18:13:51
390,ibarreta,-25.2102,-59.8599,24.110000000000014,98,48,3.28,AR,2024-04-24 18:13:53
391,kabalo,-6.0501,26.9161,22.25,94,100,1.46,CD,2024-04-24 18:13:55
392,yerofey pavlovich,53.9592,121.9524,2.420000000000016,75,100,3.23,RU,2024-04-24 18:13:58
393,aibak,36.2675,68.0215,18.0,55,21,1.65,AF,2024-04-24 18:14:01
394,island harbour,49.6,-54.3,3.170000000000016,99,100,5.8,CA,2024-04-24 18:14:04
395,moussoro,8.7618,17.9505,29.879999999999995,51,100,4.51,TD,2024-04-24 18:14:07
396,velikiye luki,56.3424,30.5279,8.160000000000025,92,100,6.32,RU,2024-04-24 18:14:12
397,mbanza-ngungu,-5.25,14.8667,20.560000000000002,94,100,1.36,CD,2024-04-24 18:14:14
398,remire-montjoly,4.905,-52.2772,27.0,83,20,1.54,GF,2024-04-24 18:14:16
399,fauske,67.2367,15.7844,-3.519999999999982,89,100,3.28,NO,2024-04-24 18:14:42
400,port saint john's,67.2367,15.7844,-3.519999999999982,89,100,3.28,NO,2024-04-24 18:14:42
401,labytnangi,66.6615,66.3811,-16.089999999999975,99,99,1.18,RU,2024-04-24 18:15:00
402,pacific grove,36.6211,-121.9178,17.560000000000002,72,100,8.23,US,2024-04-24 18:15:09
403,okhotsk,59.3644,143.2411,-0.9699999999999704,97,100,3.73,RU,2024-04-24 18:15:11
404,as sulayyil,20.4597,45.5744,25.170000000000016,18,2,3.04,SA,2024-04-24 18:15:14
405,high river,50.5802,-113.8709,18.760000000000048,30,100,7.52,CA,2024-04-24 18:15:23
406,meizhou,24.2918,116.1171,21.27000000000004,98,100,1.31,CN,2024-04-24 18:15:25
407,exu,-7.5154,-39.722,24.08000000000004,63,33,1.35,BR,2024-04-24 18:15:26
408,mariental,52.2777,10.9865,5.090000000000032,94,100,3.16,DE,2024-04-24 18:15:56
409,finspang,58.8,15.8333,0.3300000000000409,92,45,1.65,SE,2024-04-24 18:15:58
410,fale old settlement,58.8,15.8333,0.3300000000000409,92,45,1.65,SE,2024-04-24 18:15:58
411,halifax,44.6486,-63.5859,8.420000000000016,71,67,2.24,CA,2024-04-24 18:13:15
412,gustavsberg,59.3256,18.3885,2.2700000000000387,89,63,3.55,SE,2024-04-24 18:16:06
413,sitka,57.0525,-135.3376,10.010000000000048,62,59,3.18,US,2024-04-24 18:16:08
414,balotra,25.8348,72.2411,26.590000000000032,29,98,1.4,IN,2024-04-24 18:16:10
415,takoradi,4.8874,-1.7519,27.950000000000045,85,73,2.89,GH,2024-04-24 18:16:12
416,gubkinskiy,4.8874,-1.7519,27.950000000000045,85,73,2.89,GH,2024-04-24 18:16:12
417,n'zeto,-7.2316,12.8685,25.439999999999998,85,100,2.0,AO,2024-04-24 18:16:15
418,kralendijk,12.1473,-68.274,27.54000000000002,83,47,7.42,BQ,2024-04-24 18:16:17
419,mount pearl,47.5189,-52.8145,6.439999999999998,99,100,6.17,CA,2024-04-24 18:16:19
420,ta`u,47.5189,-52.8145,6.439999999999998,99,100,6.17,CA,2024-04-24 18:16:19
421,tranovaho,47.5189,-52.8145,6.439999999999998,99,100,6.17,CA,2024-04-24 18:16:19
422,meru,49.2362,2.1355,1.830000000000041,88,23,1.85,FR,2024-04-24 18:16:25
423,vilyuysk,63.7541,121.6265,-9.819999999999993,87,88,5.52,RU,2024-04-24 18:16:27
424,padang,-0.9248,100.3633,25.55000000000001,91,81,1.62,ID,2024-04-24 18:16:29
425,malango,-2.9627,119.9001,20.77000000000004,97,88,0.74,ID,2024-04-24 18:16:30
426,itoman,26.106,127.6861,21.30000000000001,86,100,3.66,JP,2024-04-24 18:16:32
427,lionel town,17.8094,-77.2394,28.410000000000025,70,11,2.94,JM,2024-04-24 18:16:34
428,ahau,-12.501,177.0479,29.460000000000036,77,16,3.89,FJ,2024-04-24 18:16:36
429,baoding,38.858,115.4907,16.150000000000034,47,45,1.53,CN,2024-04-24 18:16:38
430,san pedro pochutla,15.7444,-96.4653,31.77000000000004,38,55,3.05,MX,2024-04-24 18:16:40
431,sabang,5.8927,95.3226,29.32000000000005,76,100,2.96,ID,2024-04-24 18:16:41
432,torres,-29.3374,-49.73,20.480000000000018,63,74,5.56,BR,2024-04-24 18:16:43
433,saipan,15.191,145.7467,27.689999999999998,67,20,6.73,MP,2024-04-24 18:16:45
434,cidreira,-30.1657,-50.2183,18.53000000000003,64,80,3.72,BR,2024-04-24 18:16:47
435,karratha,-20.737,116.8479,24.590000000000032,35,86,4.62,AU,2024-04-24 18:16:49
436,lorengau,-2.033,147.2789,29.02000000000004,77,81,2.19,PG,2024-04-24 18:16:51
437,akwanga,8.9113,8.408,28.400000000000034,53,100,1.26,NG,2024-04-24 18:16:52
438,spring creek,40.7467,-115.58,14.78000000000003,54,100,3.06,US,2024-04-24 18:16:54
439,dangriga,16.9667,-88.2247,28.170000000000016,74,6,4.09,BZ,2024-04-24 18:16:56
440,jwaneng,-24.6004,24.7303,20.450000000000045,32,0,1.98,BW,2024-04-24 18:16:58
441,mhamid,30.1284,-6.8834,24.700000000000045,21,11,2.0,MA,2024-04-24 18:17:00
442,mantua,45.1567,10.7917,5.710000000000036,95,31,2.16,IT,2024-04-24 18:17:01
443,keyser,39.4409,-78.9739,13.910000000000025,65,44,3.88,US,2024-04-24 18:17:03
444,juan griego,11.0721,-63.9652,26.900000000000034,77,70,5.77,VE,2024-04-24 18:17:05
445,mbandaka,0.0471,18.2565,21.700000000000045,97,99,0.44,CD,2024-04-24 18:17:07
446,yeppoon,-23.1348,150.7437,21.760000000000048,81,55,3.17,AU,2024-04-24 18:17:08
447,waingapu,-9.6522,120.2637,26.370000000000005,83,64,4.45,ID,2024-04-24 18:17:10
448,timimoun,29.2605,0.2286,24.450000000000045,24,1,9.57,DZ,2024-04-24 18:17:14
449,timmins,48.4775,-81.3304,-0.589999999999975,59,96,2.01,CA,2024-04-24 18:17:16
450,yasnyy,47.1416,40.158,17.590000000000032,52,92,6.07,RU,2024-04-24 18:17:18
451,karatas,36.5646,35.3841,22.54000000000002,55,100,4.02,TR,2024-04-24 18:17:19
452,miyazu,35.5816,135.1993,13.520000000000039,84,99,2.09,JP,2024-04-24 18:17:21
453,ba,29.4044,106.5368,17.100000000000023,94,100,0.67,CN,2024-04-24 18:17:23
454,toliara,-23.3542,43.6697,21.610000000000014,88,0,4.13,MG,2024-04-24 18:17:25
455,naduvattam,11.4749,76.5657,15.550000000000011,68,1,1.6,IN,2024-04-24 18:17:26
456,pingzhuang,27.2428,119.7053,16.510000000000048,94,100,0.6,CN,2024-04-24 18:17:28
457,sur,33.2721,35.1964,26.689999999999998,36,63,6.39,LB,2024-04-24 18:17:30
458,ouro preto do oeste,-10.7179,-62.2567,24.25,95,64,1.1,BR,2024-04-24 18:17:32
459,filadelfia,39.9527,-75.1635,17.28000000000003,48,37,4.43,US,2024-04-24 18:17:34
460,mahina,-17.558,-149.4694,23.430000000000007,75,4,3.12,PF,2024-04-24 18:17:36
461,bandarbeyla,9.4953,50.8128,28.27000000000004,77,99,2.01,SO,2024-04-24 18:17:38
462,al muwayh,22.4366,41.7619,25.33000000000004,13,6,3.5,SA,2024-04-24 18:17:39
463,itupiranga,-5.1337,-49.3322,24.52000000000004,96,100,0.71,BR,2024-04-24 18:17:43
464,mandiana,10.6221,-8.695,32.06,36,93,2.67,GN,2024-04-24 18:17:45
465,naeso,10.6221,-8.695,32.06,36,93,2.67,GN,2024-04-24 18:17:45
466,balchik,43.4763,28.1332,12.350000000000023,87,100,1.18,BG,2024-04-24 18:17:48
467,hun,29.1246,15.9403,22.560000000000002,24,9,1.54,LY,2024-04-24 18:17:50
468,tamboril,-4.8314,-40.3196,23.110000000000014,93,53,1.47,BR,2024-04-24 18:08:46
469,huambo,-12.7765,15.732,16.04000000000002,77,95,0.8,AO,2024-04-24 18:17:54
470,mossel bay,-34.1832,22.1536,16.970000000000027,82,26,2.14,ZA,2024-04-24 18:17:55
471,bintulu,3.1874,113.0473,25.400000000000034,92,89,1.88,MY,2024-04-24 18:17:57
472,saint-pierre,48.3833,7.4719,4.3700000000000045,89,100,2.05,FR,2024-04-24 18:17:59
473,princeton,40.3493,-74.6593,15.200000000000045,60,72,4.28,US,2024-04-24 18:18:01
474,dyurtyuli,55.4906,54.8639,9.07000000000005,96,35,3.14,RU,2024-04-24 18:18:03
475,san jose de jachal,-30.2416,-68.7466,18.24000000000001,46,23,0.81,AR,2024-04-24 18:18:05
476,chui,-33.6895,-53.4547,13.160000000000025,75,11,2.94,BR,2024-04-24 18:18:07
477,kavieng,-2.5735,150.7952,29.480000000000018,73,100,5.31,PG,2024-04-24 18:18:09
478,kavaratti,10.5672,72.6395,29.53000000000003,68,26,2.04,IN,2024-04-24 18:18:10
479,marsa alam,25.07,34.8938,26.980000000000018,39,8,3.22,EG,2024-04-24 18:18:12
480,corn island,32.4777,-80.8012,23.200000000000045,50,0,2.5,US,2024-04-24 18:18:14
481,laramie,41.3114,-105.5911,18.420000000000016,23,71,7.27,US,2024-04-24 18:18:16
482,bayan nur,40.7419,107.382,14.560000000000002,23,34,4.82,CN,2024-04-24 18:18:18
483,gateway,26.5802,-81.7388,27.27000000000004,43,0,3.51,US,2024-04-24 18:18:19
484,san fernando,36.4644,-6.1982,15.57000000000005,69,100,1.64,ES,2024-04-24 18:18:21
485,bamusso,4.4588,8.8989,27.79000000000002,84,99,2.67,CM,2024-04-24 18:18:23
486,carrollton,32.9537,-96.8903,25.230000000000018,65,83,5.04,US,2024-04-24 18:18:25
487,siavonga,-16.5365,28.7102,21.850000000000023,45,1,1.59,ZM,2024-04-24 18:18:27
488,kununurra,-15.7731,128.7388,27.99000000000001,39,99,3.85,AU,2024-04-24 18:18:28
489,alzamay,55.555,98.6654,-3.8100000000000023,89,86,1.33,RU,2024-04-24 18:18:31
490,narni scalo,42.5358,12.5196,5.07000000000005,96,18,1.39,IT,2024-04-24 18:18:33
491,san vicente de canete,-13.0778,-76.3874,20.400000000000034,87,83,1.83,PE,2024-04-24 18:18:35
492,kayyerkan,-13.0778,-76.3874,20.400000000000034,87,83,1.83,PE,2024-04-24 18:18:35
493,luau,-10.7026,22.2275,19.52000000000004,62,97,1.16,AO,2024-04-24 18:18:39
494,kish,26.5361,53.9688,24.58000000000004,71,0,1.79,IR,2024-04-24 18:18:40
495,ruston,32.5232,-92.6379,21.930000000000007,86,86,1.9,US,2024-04-24 18:18:42
496,kaa-khem,51.6965,94.5637,-1.0699999999999932,58,100,4.15,RU,2024-04-24 18:18:44
497,gereshk,31.8209,64.57,20.05000000000001,54,100,4.25,AF,2024-04-24 18:18:46
498,asadabad,33.9619,48.0036,8.640000000000043,72,0,2.85,IR,2024-04-24 18:18:48
499,guerrero negro,27.971,-114.0364,18.439999999999998,61,100,8.08,MX,2024-04-24 18:18:50
500,el granada,37.5029,-122.4695,12.870000000000005,76,96,3.71,US,2024-04-24 18:18:52
501,peniche,39.3566,-9.3813,14.75,73,6,9.61,PT,2024-04-24 18:18:54
502,barcelos,41.5314,-8.6192,9.79000000000002,82,26,2.58,PT,2024-04-24 18:18:56
503,samamea,-13.9345,-171.5311,28.720000000000027,74,53,3.95,WS,2024-04-24 18:18:58
504,arno,7.063,171.5553,28.260000000000048,79,99,9.22,MH,2024-04-24 18:18:59
505,pariaman,-0.6264,100.1178,25.930000000000007,89,86,1.51,ID,2024-04-24 18:19:01
506,nuku'alofa,-21.1343,-175.2018,26.850000000000023,86,34,3.98,TO,2024-04-24 18:19:03
507,karymskoye,51.6234,114.3406,1.4300000000000068,54,70,4.94,RU,2024-04-24 18:19:05
508,porto novo,6.4991,2.6253,28.27000000000004,82,27,3.06,BJ,2024-04-24 18:19:06
509,sarkand,45.4109,79.9155,12.970000000000027,52,93,0.61,KZ,2024-04-24 18:19:08
510,babana,10.4337,3.8182,30.170000000000016,50,30,4.15,NG,2024-04-24 18:19:10
511,morshansk,53.4429,41.8131,11.980000000000018,58,87,4.84,RU,2024-04-24 18:19:12
512,kudahuvadhoo,2.6705,72.8906,27.99000000000001,80,99,4.46,MV,2024-04-24 18:19:14
513,tromso,69.6516,18.9558,-1.5399999999999636,86,100,2.03,NO,2024-04-24 18:19:15
514,bitam,35.3078,5.3741,14.260000000000048,33,0,0.92,DZ,2024-04-24 18:19:17
515,kone,-21.0608,164.8619,27.05000000000001,64,37,2.01,NC,2024-04-24 18:19:19
516,prado,41.9204,-5.4204,8.79000000000002,61,100,1.35,ES,2024-04-24 18:19:21
517,jaru,-10.4318,-62.4788,24.629999999999995,94,74,0.27,BR,2024-04-24 18:19:22
518,zhangye,38.9365,100.4556,12.689999999999998,26,5,2.06,CN,2024-04-24 18:19:24
519,iskateley,67.6762,53.1292,-9.279999999999973,92,6,3.94,RU,2024-04-24 18:19:26
520,todos santos,23.4501,-110.2254,22.939999999999998,56,50,4.11,MX,2024-04-24 18:19:28
521,shingu,33.7241,135.993,18.850000000000023,73,16,1.14,JP,2024-04-24 18:19:30
522,raduzhnyy,33.7241,135.993,18.850000000000023,73,16,1.14,JP,2024-04-24 18:19:30
523,son la,21.3274,103.9152,22.680000000000007,74,45,1.3,VN,2024-04-24 18:19:33
524,suva,-18.1416,178.4422,29.29000000000002,76,24,1.21,FJ,2024-04-24 18:19:35
525,tateyama,34.9965,139.87,17.390000000000043,81,91,0.89,JP,2024-04-24 18:19:36
526,ribeira brava,32.6701,-17.065,16.950000000000045,63,0,2.31,PT,2024-04-24 18:19:38
527,rosarito,32.3648,-117.0556,16.700000000000045,70,3,5.95,MX,2024-04-24 18:19:40
528,vila franca do campo,37.7172,-25.4335,15.150000000000034,78,59,3.77,PT,2024-04-24 18:19:42
529,kutum,14.2108,24.6496,27.02000000000004,10,0,6.56,SD,2024-04-24 18:19:44
530,wanxian,30.8102,108.4034,16.910000000000025,80,69,0.79,CN,2024-04-24 18:19:46
531,opuwo,-18.055,13.8387,20.910000000000025,20,3,3.08,NA,2024-04-24 18:19:48
532,codajas,-3.8413,-62.0603,23.610000000000014,98,100,1.11,BR,2024-04-24 18:19:49
533,nurmes,63.5422,29.141,-4.529999999999973,98,40,1.79,FI,2024-04-24 18:19:51
534,jutai,-2.7471,-66.7721,24.439999999999998,91,94,0.88,BR,2024-04-24 18:19:53
535,molde,62.6016,8.1386,-1.8899999999999864,83,77,3.71,NO,2024-04-24 18:19:55
536,qusmuryn,62.6016,8.1386,-1.8899999999999864,83,77,3.71,NO,2024-04-24 18:19:55
537,tazovsky,67.4735,78.7149,-14.349999999999966,100,92,1.77,RU,2024-04-24 18:19:59
538,port macquarie,-31.4299,152.9104,17.400000000000034,85,100,3.85,AU,2024-04-24 18:20:00
539,hafar al-batin,28.4328,45.9628,23.960000000000036,19,0,4.53,SA,2024-04-24 18:20:02
540,inhambane,-23.866,35.3844,23.450000000000045,82,3,2.15,MZ,2024-04-24 18:20:04
541,imperatriz,-5.5269,-47.4781,24.730000000000018,93,92,0.48,BR,2024-04-24 18:20:06
542,rio tuba,8.5288,117.4345,29.29000000000002,73,100,6.04,PH,2024-04-24 18:20:08
543,ibirama,-27.0537,-49.5191,21.430000000000007,98,91,1.5,BR,2024-04-24 18:20:10
544,gizo,29.9871,31.2118,26.04000000000002,42,99,4.67,EG,2024-04-24 18:20:11
545,priargunsk,50.3659,119.0901,3.6000000000000227,45,2,8.08,RU,2024-04-24 18:20:13
546,ugoofaaru,50.3659,119.0901,3.6000000000000227,45,2,8.08,RU,2024-04-24 18:20:13
547,parabel',58.714,81.5018,-3.3100000000000023,88,100,3.94,RU,2024-04-24 18:20:17
548,inarajan village,58.714,81.5018,-3.3100000000000023,88,100,3.94,RU,2024-04-24 18:20:17
549,sinop,42.0266,35.1512,14.950000000000045,76,100,4.81,TR,2024-04-24 18:20:20
550,chibuto,-24.6886,33.5313,20.27000000000004,95,0,1.97,MZ,2024-04-24 18:20:22
551,saint joseph,49.5345,-1.5298,4.6200000000000045,86,69,0.97,FR,2024-04-24 18:20:24
552,altus,34.6381,-99.334,23.920000000000016,70,98,6.64,US,2024-04-24 18:14:37
553,lubuklinggau,-3.2919,102.8716,22.420000000000016,98,73,0.91,ID,2024-04-24 18:20:27
554,rawala kot,-3.2919,102.8716,22.420000000000016,98,73,0.91,ID,2024-04-24 18:20:27
555,saint peter,44.3238,-93.9585,14.930000000000007,41,41,3.11,US,2024-04-24 18:20:31
556,kisangani,0.5184,25.2057,21.480000000000018,98,100,0.85,CD,2024-04-24 18:20:33
557,joensuu,62.6006,29.7585,-3.169999999999959,97,30,1.95,FI,2024-04-24 18:20:34
558,brisas de zicatela,15.8367,-97.0429,30.0,53,5,3.21,MX,2024-04-24 18:20:36
559,mount isa,-20.729,139.4932,24.0,37,16,9.27,AU,2024-04-24 18:20:38
560,vadso,70.2267,29.7828,-3.109999999999957,98,100,5.92,NO,2024-04-24 18:20:39
561,tan-tan,28.4376,-11.0987,17.660000000000025,82,0,3.7,MA,2024-04-24 18:20:41
562,baihar,22.105,80.5482,25.189999999999998,48,0,0.27,IN,2024-04-24 18:20:43
563,harrismith,-28.2728,29.1294,12.230000000000018,52,38,0.65,ZA,2024-04-24 18:20:45
564,port moresby,-9.4743,147.16,28.230000000000018,81,100,2.01,PG,2024-04-24 18:20:47
565,jamsankoski,61.9191,25.1793,-5.1299999999999955,99,44,1.13,FI,2024-04-24 18:20:48
566,bardai,21.355,17.0005,28.49000000000001,13,0,2.43,TD,2024-04-24 18:20:50
567,jiuquan,39.7321,98.4937,13.010000000000048,24,15,0.37,CN,2024-04-24 18:20:52
568,thunder bay,48.4064,-89.2598,0.6100000000000136,55,39,3.58,CA,2024-04-24 18:20:54
569,villa gesell,-37.2556,-56.9681,12.970000000000027,73,23,3.22,AR,2024-04-24 18:14:02
570,sorong,-0.8634,131.2545,26.900000000000034,85,17,2.44,ID,2024-04-24 18:20:57
571,tarawa,36.4768,44.4778,15.010000000000048,35,28,2.32,IQ,2024-04-24 18:20:59
572,abepura,-2.6161,140.673,26.650000000000034,90,98,1.69,ID,2024-04-24 18:21:01
573,miquelon,47.0454,-56.3191,4.210000000000036,100,100,10.81,PM,2024-04-24 18:21:02
574,acapulco de juarez,16.868,-99.894,27.600000000000023,53,3,5.19,MX,2024-04-24 18:21:04
575,qarqaraly,49.4124,75.4705,-2.42999999999995,50,40,5.08,KZ,2024-04-24 18:21:06
576,port alfred,-33.5982,26.8915,19.140000000000043,87,98,6.7,ZA,2024-04-24 18:21:08
577,ciudad lazaro cardenas,20.4622,-97.6991,30.090000000000032,58,14,6.2,MX,2024-04-24 18:21:10
578,arfoud,31.4324,-4.2343,22.700000000000045,21,3,3.93,MA,2024-04-24 18:21:11
579,ulsteinvik,62.3427,5.8469,3.0200000000000387,80,84,1.9,NO,2024-04-24 18:21:13
580,fort st. john,56.2524,-120.8469,11.170000000000016,23,100,6.41,CA,2024-04-24 18:21:15
581,ylitornio,66.3164,23.6713,-3.9499999999999886,99,96,1.26,FI,2024-04-24 18:21:17
582,salakhid,32.8725,36.5727,23.900000000000034,23,25,7.19,SY,2024-04-24 18:21:19
583,guanajuato,21.0159,-101.2528,29.430000000000007,10,28,1.94,MX,2024-04-24 18:21:20
584,qamdo,31.145,97.1699,2.9700000000000273,84,99,0.82,CN,2024-04-24 18:21:22
585,hami,42.8174,93.5142,17.430000000000007,23,100,4.35,CN,2024-04-24 18:21:24
586,griffith,-34.2871,146.0551,12.07000000000005,60,0,5.42,AU,2024-04-24 18:21:26
587,reggane,26.7207,0.1752,29.110000000000014,13,1,4.34,DZ,2024-04-24 18:21:28
588,novodvinsk,64.4192,40.7938,-0.6899999999999977,100,99,0.93,RU,2024-04-24 18:21:30
589,kegen,43.0217,79.2232,7.080000000000041,80,100,3.6,KZ,2024-04-24 18:21:31
590,lincoln city,44.9618,-124.016,12.57000000000005,82,93,3.55,US,2024-04-24 18:21:33
591,rurrenabaque,-14.4437,-67.5312,26.74000000000001,88,100,0.51,BO,2024-04-24 18:21:35
